[
  {
    "name": "Alinagar Bazar",
    "latitude": 24.84513670027095,
    "longitude": 88.3003611
  },
  {
    "name": "Ashuganj Bazar",
    "latitude": 24.0335326003307,
    "longitude": 90.99724449999998
  },
  {
    "name": "Badalgachhi",
    "latitude": 24.96865950026065,
    "longitude": 88.9120082
  },
  {
    "name": "Bagerhat",
    "latitude": 22.655418700395536,
    "longitude": 89.79717459999999
  },
  {
    "name": "Baghabari",
    "latitude": 24.13873590032379,
    "longitude": 89.58584039999998
  },
  {
    "name": "Bahadurabad",
    "latitude": 25.224585600238377,
    "longitude": 89.774875
  },
  {
    "name": "Bakshiganj",
    "latitude": 25.18443670024195,
    "longitude": 89.86935509999999
  },
  {
    "name": "Bamundi",
    "latitude": 23.89385370033948,
    "longitude": 88.8045702
  },
  {
    "name": "Bandarban",
    "latitude": 22.196300200405766,
    "longitude": 92.2198872
  },
  {
    "name": "Bandarban Sadar Upazila",
    "latitude": 22.197288900405756,
    "longitude": 92.2217498
  },
  {
    "name": "Baneshwar",
    "latitude": 24.367173900307893,
    "longitude": 88.7546203
  },
  {
    "name": "Bangra",
    "latitude": 24.36743620030787,
    "longitude": 89.9565559
  },
  {
    "name": "Bara Keshtola",
    "latitude": 23.194790800376083,
    "longitude": 91.0454869
  },
  {
    "name": "Barguna",
    "latitude": 22.15890500040634,
    "longitude": 90.11814559999999
  },
  {
    "name": "Barkhada",
    "latitude": 23.93463390033696,
    "longitude": 89.0910184
  },
  {
    "name": "Batiaghata",
    "latitude": 22.740346800393006,
    "longitude": 89.5180285
  },
  {
    "name": "Bausi",
    "latitude": 24.780886700276195,
    "longitude": 89.85363189999998
  },
  {
    "name": "Belaichhari-\u09ac\u09bf\u09b2\u09be\u0987\u099b\u09a1\u09bc\u09bf",
    "latitude": 22.504596600399545,
    "longitude": 92.33932289999998
  },
  {
    "name": "Belonia",
    "latitude": 23.249787900373665,
    "longitude": 91.4550309
  },
  {
    "name": "Benapole",
    "latitude": 23.044612400382295,
    "longitude": 88.90405909999998
  },
  {
    "name": "Bhaighat",
    "latitude": 24.63783570028756,
    "longitude": 89.972397
  },
  {
    "name": "Bhairab Bazar",
    "latitude": 24.04458980032999,
    "longitude": 90.9866937
  },
  {
    "name": "Bhatiari",
    "latitude": 22.43379240040122,
    "longitude": 91.74039439999999
  },
  {
    "name": "Bhola",
    "latitude": 22.68909500039456,
    "longitude": 90.64058129999998
  },
  {
    "name": "Bholarhat",
    "latitude": 24.943452800262772,
    "longitude": 88.2185594
  },
  {
    "name": "Bishwamvarpur",
    "latitude": 25.105493000248888,
    "longitude": 91.3036504
  },
  {
    "name": "Bodorganj",
    "latitude": 25.67513990019641,
    "longitude": 89.06087239999998
  },
  {
    "name": "Bonogram",
    "latitude": 23.996679200333062,
    "longitude": 89.47294929999998
  },
  {
    "name": "Boyra",
    "latitude": 22.83508230038994,
    "longitude": 89.5316336
  },
  {
    "name": "Burhanuddin",
    "latitude": 22.501253500399635,
    "longitude": 90.7293339
  },
  {
    "name": "Burimari",
    "latitude": 26.39664570012317,
    "longitude": 88.9376035
  },
  {
    "name": "Chagalnaiya",
    "latitude": 23.03987040038248,
    "longitude": 91.51482579999998
  },
  {
    "name": "Chagra",
    "latitude": 24.40202320030537,
    "longitude": 91.1110461
  },
  {
    "name": "Chandaikona",
    "latitude": 24.557039200293794,
    "longitude": 89.50252979999999
  },
  {
    "name": "Chandra",
    "latitude": 24.04839940032974,
    "longitude": 90.2393882
  },
  {
    "name": "Chanduriya",
    "latitude": 24.514380100297032,
    "longitude": 88.5596726
  },
  {
    "name": "Chapainawabganj",
    "latitude": 24.595442800290854,
    "longitude": 88.27046090000002
  },
  {
    "name": "Charfasson",
    "latitude": 22.18629930040593,
    "longitude": 90.76006129999999
  },
  {
    "name": "Chaugacha",
    "latitude": 23.27015900037274,
    "longitude": 89.02190119999999
  },
  {
    "name": "Chhatak Bazaar",
    "latitude": 25.033745000255095,
    "longitude": 91.66182879999998
  },
  {
    "name": "Chinakhora",
    "latitude": 23.9628403003352,
    "longitude": 89.49489959999998
  },
  {
    "name": "Chirir Bandar",
    "latitude": 25.65698900019816,
    "longitude": 88.7761974
  },
  {
    "name": "Chowmuhani",
    "latitude": 22.94385750038612,
    "longitude": 91.110852
  },
  {
    "name": "Chuadanga",
    "latitude": 23.64507610035393,
    "longitude": 88.8465767
  },
  {
    "name": "Companiganj",
    "latitude": 23.637574100354332,
    "longitude": 90.971007
  },
  {
    "name": "Damuhuda",
    "latitude": 23.602496000356243,
    "longitude": 88.7813352
  },
  {
    "name": "Dapunia",
    "latitude": 24.042551800330116,
    "longitude": 89.15959999999998
  },
  {
    "name": "Darsana",
    "latitude": 23.53106890036003,
    "longitude": 88.8002262
  },
  {
    "name": "Daulatkhan",
    "latitude": 22.60143460039705,
    "longitude": 90.74601139999999
  },
  {
    "name": "Deluti",
    "latitude": 22.61659260039663,
    "longitude": 89.4154129
  },
  {
    "name": "Dewanganj",
    "latitude": 25.141591200245728,
    "longitude": 89.780017
  },
  {
    "name": "Dholapara",
    "latitude": 24.460735000301042,
    "longitude": 90.0903701
  },
  {
    "name": "Dinajpur",
    "latitude": 25.626071200201142,
    "longitude": 88.6346228
  },
  {
    "name": "Dupchachia",
    "latitude": 24.86908300026898,
    "longitude": 89.1837301
  },
  {
    "name": "Elenga",
    "latitude": 24.3351648003102,
    "longitude": 89.9252011
  },
  {
    "name": "Faridganj",
    "latitude": 23.128294200378907,
    "longitude": 90.7547958
  },
  {
    "name": "Feni",
    "latitude": 23.006818600383756,
    "longitude": 91.3966134
  },
  {
    "name": "Gaibandha",
    "latitude": 25.33154710022872,
    "longitude": 89.5485082
  },
  {
    "name": "Garobazar",
    "latitude": 24.53754620029528,
    "longitude": 90.1336826
  },
  {
    "name": "Gazaria",
    "latitude": 23.557692700358636,
    "longitude": 90.6523837
  },
  {
    "name": "Gazipur",
    "latitude": 23.998079700332976,
    "longitude": 90.42298479999998
  },
  {
    "name": "Ghior",
    "latitude": 23.899588500339128,
    "longitude": 89.8719708
  },
  {
    "name": "Gonaighat",
    "latitude": 25.09349170024993,
    "longitude": 91.98293509999999
  },
  {
    "name": "Gopalganj",
    "latitude": 23.005941800383795,
    "longitude": 89.82634789999999
  },
  {
    "name": "Gopinathpur",
    "latitude": 23.1117118003796,
    "longitude": 89.76581479999999
  },
  {
    "name": "Habiganj",
    "latitude": 24.385837000306545,
    "longitude": 91.41263579999999
  },
  {
    "name": "Hariakunda",
    "latitude": 23.65137660035358,
    "longitude": 89.04870019999998
  },
  {
    "name": "Hatiya",
    "latitude": 22.287729700404203,
    "longitude": 91.1265769
  },
  {
    "name": "Hili",
    "latitude": 25.28131750023328,
    "longitude": 89.00332329999999
  },
  {
    "name": "Ishwarganj",
    "latitude": 24.68889870028356,
    "longitude": 90.59654829999998
  },
  {
    "name": "Islampur-\u0987\u09b8\u09b2\u09be\u09ae\u09aa\u09c1\u09b0",
    "latitude": 25.054941800253278,
    "longitude": 89.77234629999998
  },
  {
    "name": "Jakshin",
    "latitude": 22.94115780038621,
    "longitude": 90.8748196
  },
  {
    "name": "Jalchatro",
    "latitude": 24.64618460028692,
    "longitude": 90.07828
  },
  {
    "name": "Jamalpur",
    "latitude": 24.927707600264096,
    "longitude": 89.94782049999999
  },
  {
    "name": "Jashore",
    "latitude": 23.166597100377302,
    "longitude": 89.20951429999998
  },
  {
    "name": "Jhalokati",
    "latitude": 22.642210787261607,
    "longitude": 90.19802269097384
  },
  {
    "name": "Jhalokati",
    "latitude": 22.64330000039588,
    "longitude": 90.2
  },
  {
    "name": "Jhaudia",
    "latitude": 23.773170700346682,
    "longitude": 89.06136519999998
  },
  {
    "name": "Jhenaidah",
    "latitude": 23.54481440035931,
    "longitude": 89.17341959999999
  },
  {
    "name": "Jhinaigati",
    "latitude": 25.175308400242752,
    "longitude": 90.10664699999998
  },
  {
    "name": "Joypurhat",
    "latitude": 25.103447600249066,
    "longitude": 89.02091569999999
  },
  {
    "name": "Kachua",
    "latitude": 22.6499434003957,
    "longitude": 89.8802356
  },
  {
    "name": "Kaharole",
    "latitude": 25.804308100183796,
    "longitude": 88.6583776
  },
  {
    "name": "Kaliganj",
    "latitude": 25.967873200167492,
    "longitude": 89.2082255
  },
  {
    "name": "Kaliganj",
    "latitude": 23.40792550036625,
    "longitude": 89.1359615
  },
  {
    "name": "Kaliganj",
    "latitude": 23.40792550036625,
    "longitude": 89.1359615
  },
  {
    "name": "Kamlaghat",
    "latitude": 23.569593900358,
    "longitude": 90.4884633
  },
  {
    "name": "Karatia",
    "latitude": 24.222267900318105,
    "longitude": 89.97814389999999
  },
  {
    "name": "Karimganj",
    "latitude": 24.46512270030072,
    "longitude": 90.8690233
  },
  {
    "name": "Karpasdanga",
    "latitude": 23.584338000357217,
    "longitude": 88.70656449999998
  },
  {
    "name": "Kashinathpur",
    "latitude": 23.958281500335488,
    "longitude": 89.60736419999999
  },
  {
    "name": "Kawkhali",
    "latitude": 22.62612830039637,
    "longitude": 90.05927749999998
  },
  {
    "name": "Khagrachhari",
    "latitude": 23.107799900379753,
    "longitude": 91.9889955
  },
  {
    "name": "Khalishpur",
    "latitude": 22.860421300389074,
    "longitude": 89.54440990000002
  },
  {
    "name": "Khoksha",
    "latitude": 23.806388300344725,
    "longitude": 89.2835547
  },
  {
    "name": "Kishoreganj",
    "latitude": 25.899303000174367,
    "longitude": 89.0169223
  },
  {
    "name": "Kishoreganj",
    "latitude": 24.43412870030301,
    "longitude": 90.7862596
  },
  {
    "name": "Kochua",
    "latitude": 23.34315130036936,
    "longitude": 90.89107039999999
  },
  {
    "name": "Kodomtoli",
    "latitude": 24.418016300304195,
    "longitude": 89.99158089999999
  },
  {
    "name": "Komolgonj",
    "latitude": 24.35248960030895,
    "longitude": 91.85556549999998
  },
  {
    "name": "Kotchadpur",
    "latitude": 23.41185850036606,
    "longitude": 89.0114841
  },
  {
    "name": "Kumira",
    "latitude": 22.497346800399725,
    "longitude": 91.71551289999998
  },
  {
    "name": "Kurigram",
    "latitude": 25.812137800183017,
    "longitude": 89.6441289
  },
  {
    "name": "Kutalipara",
    "latitude": 22.992008400384325,
    "longitude": 90.000354
  },
  {
    "name": "Lakshmipur",
    "latitude": 22.944417900386103,
    "longitude": 90.827495
  },
  {
    "name": "Laliarhut",
    "latitude": 22.425243500401407,
    "longitude": 91.8196079
  },
  {
    "name": "Lalmonirhat",
    "latitude": 25.91638480017266,
    "longitude": 89.4461215
  },
  {
    "name": "Langdu \u09b2\u0982\u0997\u09a6\u09c1",
    "latitude": 22.97298670038504,
    "longitude": 92.19842139999999
  },
  {
    "name": "Lengra Bazar",
    "latitude": 24.48823490029899,
    "longitude": 90.0232055
  },
  {
    "name": "Lohagora",
    "latitude": 23.18818920037637,
    "longitude": 89.64990650000001
  },
  {
    "name": "Lokkhipur",
    "latitude": 23.54554658687775,
    "longitude": 90.65090990169783
  },
  {
    "name": "Madaripur",
    "latitude": 23.167547300377258,
    "longitude": 90.20497330000002
  },
  {
    "name": "Magura",
    "latitude": 23.488333000362235,
    "longitude": 89.41999999999999
  },
  {
    "name": "Makrai",
    "latitude": 24.476186600299897,
    "longitude": 90.0594535
  },
  {
    "name": "Manikgonj",
    "latitude": 23.871163000340857,
    "longitude": 89.9987833
  },
  {
    "name": "Manpura",
    "latitude": 22.23066790040521,
    "longitude": 90.9718951
  },
  {
    "name": "Mataji hat",
    "latitude": 24.982625400259458,
    "longitude": 88.83943829999998
  },
  {
    "name": "Matlab",
    "latitude": 23.340039600369515,
    "longitude": 90.7106389
  },
  {
    "name": "Mawa",
    "latitude": 23.474410000362933,
    "longitude": 90.2619739
  },
  {
    "name": "Mawna",
    "latitude": 24.22074890031822,
    "longitude": 90.41288279999999
  },
  {
    "name": "Mirkadim",
    "latitude": 23.557451500358642,
    "longitude": 90.48307499999999
  },
  {
    "name": "Mohadebpur",
    "latitude": 24.917735400264934,
    "longitude": 88.75114719999999
  },
  {
    "name": "Mohanganj",
    "latitude": 24.875591900268446,
    "longitude": 90.9771054
  },
  {
    "name": "Mohanpur",
    "latitude": 24.547458900294526,
    "longitude": 88.64755679999999
  },
  {
    "name": "Mollarhat",
    "latitude": 22.92915180038666,
    "longitude": 89.80670049999999
  },
  {
    "name": "Monohordhi",
    "latitude": 24.14193053375675,
    "longitude": 90.69741559827204
  },
  {
    "name": "Monohorganj",
    "latitude": 23.162281000377476,
    "longitude": 91.0579522
  },
  {
    "name": "Moulvibazar",
    "latitude": 24.487788800299032,
    "longitude": 91.7599173
  },
  {
    "name": "Muddafarganj",
    "latitude": 23.2689425003728,
    "longitude": 91.0460695
  },
  {
    "name": "Mundomala",
    "latitude": 24.605938300290042,
    "longitude": 88.47295689999999
  },
  {
    "name": "Muradnagar Sadar",
    "latitude": 23.641683080971738,
    "longitude": 90.92651440585422
  },
  {
    "name": "Nachole",
    "latitude": 24.72890370028038,
    "longitude": 88.4235211
  },
  {
    "name": "Naikhongchari",
    "latitude": 21.43083530040955,
    "longitude": 92.17517819999999
  },
  {
    "name": "Nakla",
    "latitude": 24.969219900260597,
    "longitude": 90.18332479999998
  },
  {
    "name": "Nandigram",
    "latitude": 24.65737470028604,
    "longitude": 89.2708646
  },
  {
    "name": "Nandina",
    "latitude": 24.86865400026902,
    "longitude": 90.03680739999999
  },
  {
    "name": "Nandir Bazar",
    "latitude": 24.979634100259712,
    "longitude": 89.9687863
  },
  {
    "name": "Naogaon",
    "latitude": 24.807322900274045,
    "longitude": 88.9445447
  },
  {
    "name": "Narail",
    "latitude": 23.175000000376937,
    "longitude": 89.505
  },
  {
    "name": "Narsingdi",
    "latitude": 23.91564510033814,
    "longitude": 90.6981963
  },
  {
    "name": "Narundi",
    "latitude": 24.867755500269087,
    "longitude": 90.1177233
  },
  {
    "name": "Natun Bazar",
    "latitude": 23.52848620036016,
    "longitude": 90.4513684
  },
  {
    "name": "Nawabganj",
    "latitude": 23.660575600353063,
    "longitude": 90.1878557
  },
  {
    "name": "Nazirhat, Zhonkar",
    "latitude": 22.63149640039622,
    "longitude": 91.80007739999999
  },
  {
    "name": "Netrokona",
    "latitude": 24.885339800267634,
    "longitude": 90.7326247
  },
  {
    "name": "Nilphamari",
    "latitude": 25.933927500170896,
    "longitude": 88.8534588
  },
  {
    "name": "Noakhali",
    "latitude": 22.863717100388968,
    "longitude": 91.09741819999999
  },
  {
    "name": "Noapara",
    "latitude": 23.028794000382913,
    "longitude": 89.396828
  },
  {
    "name": "Nolin",
    "latitude": 24.551635400294206,
    "longitude": 89.82889349999999
  },
  {
    "name": "Pabna",
    "latitude": 24.00500000033253,
    "longitude": 89.24999999999999
  },
  {
    "name": "Paglapeer",
    "latitude": 25.811062800183123,
    "longitude": 89.14720039999999
  },
  {
    "name": "Paikgacha",
    "latitude": 22.589352800397375,
    "longitude": 89.3189657
  },
  {
    "name": "Paiska",
    "latitude": 24.70310360028243,
    "longitude": 89.8895375
  },
  {
    "name": "Pakulla",
    "latitude": 24.141443800323607,
    "longitude": 90.0201295
  },
  {
    "name": "Panchagarh",
    "latitude": 26.331839300129992,
    "longitude": 88.5556768
  },
  {
    "name": "Patharghata",
    "latitude": 22.03728530040793,
    "longitude": 89.96870649999998
  },
  {
    "name": "Patishar",
    "latitude": 24.617463868359238,
    "longitude": 89.08884902063413
  },
  {
    "name": "Patnitola",
    "latitude": 25.042667500254336,
    "longitude": 88.75964179999998
  },
  {
    "name": "Patuakhali",
    "latitude": 22.35896640040282,
    "longitude": 90.3310543
  },
  {
    "name": "Phulbaria",
    "latitude": 24.6360859002877,
    "longitude": 90.27177859999999
  },
  {
    "name": "Phultala",
    "latitude": 22.97355280038502,
    "longitude": 89.4745659
  },
  {
    "name": "Pingna",
    "latitude": 24.62362060028867,
    "longitude": 89.8083076
  },
  {
    "name": "Pirganj (\u09aa\u09c0\u09b0\u0997\u099e\u09cd\u099c)",
    "latitude": 25.852289000179045,
    "longitude": 88.3617524
  },
  {
    "name": "Pirojpur",
    "latitude": 22.578961100397656,
    "longitude": 89.9691003
  },
  {
    "name": "porsha",
    "latitude": 25.029198900255487,
    "longitude": 88.44914599999998
  },
  {
    "name": "Raipura-\u09b0\u09be\u09af\u09bc\u09aa\u09c1\u09b0\u09be",
    "latitude": 24.013931600331958,
    "longitude": 90.8252887
  },
  {
    "name": "Rajapur Upazila",
    "latitude": 22.570429600397876,
    "longitude": 90.14355589999998
  },
  {
    "name": "Rajasthali-\u09b0\u09be\u099c\u09b8\u09cd\u09a5\u09b2\u09c0",
    "latitude": 22.3601819004028,
    "longitude": 92.2520465
  },
  {
    "name": "Rajbari",
    "latitude": 23.755000000347728,
    "longitude": 89.65
  },
  {
    "name": "Rangamati",
    "latitude": 22.650000000395693,
    "longitude": 92.1833
  },
  {
    "name": "Rohanpur",
    "latitude": 24.81965290027305,
    "longitude": 88.3241987
  },
  {
    "name": "Rowangchari",
    "latitude": 22.178619100406046,
    "longitude": 92.33544710000001
  },
  {
    "name": "Ruhea",
    "latitude": 26.170389600146816,
    "longitude": 88.41150720000002
  },
  {
    "name": "Sabroom",
    "latitude": 23.002458700383933,
    "longitude": 91.7307016
  },
  {
    "name": "Sadipur",
    "latitude": 24.64321900028715,
    "longitude": 91.6874
  },
  {
    "name": "Saghatta",
    "latitude": 25.117355500247854,
    "longitude": 89.57391519999999
  },
  {
    "name": "Sagordighi",
    "latitude": 24.471096500300273,
    "longitude": 90.1957689
  },
  {
    "name": "Saidpur",
    "latitude": 25.783980400185794,
    "longitude": 88.8940577
  },
  {
    "name": "Saraigachi",
    "latitude": 25.016725800256555,
    "longitude": 88.5283361
  },
  {
    "name": "Sariakandi",
    "latitude": 24.89124710026715,
    "longitude": 89.5665748
  },
  {
    "name": "Sathiya",
    "latitude": 24.0551110003293,
    "longitude": 89.5498779
  },
  {
    "name": "Satkhira",
    "latitude": 22.716650900393738,
    "longitude": 89.07498569999998
  },
  {
    "name": "Senbagh",
    "latitude": 23.000787300383994,
    "longitude": 91.23766119999999
  },
  {
    "name": "Shadullahpur",
    "latitude": 25.394269200222965,
    "longitude": 89.46689049999999
  },
  {
    "name": "Shahajadpur",
    "latitude": 24.175248500321324,
    "longitude": 89.58773870000002
  },
  {
    "name": "Shahbazpur Town",
    "latitude": 24.049851700329643,
    "longitude": 91.17657589999999
  },
  {
    "name": "Shaistaganj",
    "latitude": 24.27720540031429,
    "longitude": 91.4502619
  },
  {
    "name": "Shamganj",
    "latitude": 24.843022100271124,
    "longitude": 90.5809705
  },
  {
    "name": "Shapahar",
    "latitude": 25.125980600247104,
    "longitude": 88.58938079999999
  },
  {
    "name": "Shariatpur",
    "latitude": 23.21328410037528,
    "longitude": 90.3481247
  },
  {
    "name": "Shibalaya",
    "latitude": 23.836550800342938,
    "longitude": 89.78160779999999
  },
  {
    "name": "Shibganj",
    "latitude": 24.681393100284147,
    "longitude": 88.15829849999999
  },
  {
    "name": "Shibganj",
    "latitude": 25.01403450025679,
    "longitude": 89.35978899999999
  },
  {
    "name": "Shymnagar",
    "latitude": 22.342990700403146,
    "longitude": 89.10545109999998
  },
  {
    "name": "Singair",
    "latitude": 23.815205100344212,
    "longitude": 90.13842539999999
  },
  {
    "name": "Sirajganj",
    "latitude": 24.45662530030135,
    "longitude": 89.7081281
  },
  {
    "name": "Sonadanga",
    "latitude": 22.816269400390567,
    "longitude": 89.54436179999999
  },
  {
    "name": "Sonaimuri",
    "latitude": 23.03504990038267,
    "longitude": 91.0977053
  },
  {
    "name": "Sribardi",
    "latitude": 25.15147560024486,
    "longitude": 89.97492770000001
  },
  {
    "name": "Suaganj",
    "latitude": 23.376531900367773,
    "longitude": 91.2407604
  },
  {
    "name": "Sunamganj District",
    "latitude": 25.06531490025238,
    "longitude": 91.406908
  },
  {
    "name": "Susung Durgapur",
    "latitude": 25.123830500247287,
    "longitude": 90.6781412
  },
  {
    "name": "Swarupkathi",
    "latitude": 22.74734180039279,
    "longitude": 90.10144179999999
  },
  {
    "name": "Tangail",
    "latitude": 24.250726500316144,
    "longitude": 89.9149441
  },
  {
    "name": "Tarakandi",
    "latitude": 24.67609830028457,
    "longitude": 89.8258528
  },
  {
    "name": "tarash",
    "latitude": 24.432053191663993,
    "longitude": 89.37388835442442
  },
  {
    "name": "Thakurgaon",
    "latitude": 26.02005320016221,
    "longitude": 88.4694397
  },
  {
    "name": "Tongi",
    "latitude": 23.897429000339255,
    "longitude": 90.4078742
  },
  {
    "name": "Trimohini",
    "latitude": 25.283188191570485,
    "longitude": 88.93950689525467
  },
  {
    "name": "Wazipur",
    "latitude": 22.825381700390267,
    "longitude": 90.25753109999998
  },
  {
    "name": "Zanjira",
    "latitude": 23.34356960036935,
    "longitude": 90.3057009
  },
  {
    "name": "Zaria Janjail",
    "latitude": 25.010520200257087,
    "longitude": 90.6462801
  },
  {
    "name": "\u0985\u0995\u09cd\u09b8\u09bf\u099c\u09c7\u09a8",
    "latitude": 22.3936075004021,
    "longitude": 91.8216855
  },
  {
    "name": "\u0986\u09b2\u09c0\u0995\u09a6\u09ae-Alikadam",
    "latitude": 21.65883580041017,
    "longitude": 92.31858730000002
  },
  {
    "name": "\u0988\u09a6\u0997\u09be\u0981\u0993-Idgaon",
    "latitude": 21.553636100410067,
    "longitude": 92.0668781
  },
  {
    "name": "\u098f\u09a8\u09be\u09df\u09c7\u09a4\u09aa\u09c1\u09b0 Enayetpur",
    "latitude": 24.845053900270962,
    "longitude": 88.39961939999999
  },
  {
    "name": "\u099a\u09be\u09b2\u09a8\u09be",
    "latitude": 22.603849200396983,
    "longitude": 89.5210646
  },
  {
    "name": "\u099a\u09c1\u0995\u09a8\u0997\u09b0",
    "latitude": 22.839680900389784,
    "longitude": 89.2956318
  },
  {
    "name": "\u099a\u09cc\u09a6\u09cd\u09a6\u09b6\u09a4",
    "latitude": 24.3823318003068,
    "longitude": 90.7597974
  },
  {
    "name": "\u09a8\u09a8\u09cd\u09a6\u09c0\u09b0 \u09b9\u09be\u099f",
    "latitude": 22.460869400400597,
    "longitude": 91.8163491
  },
  {
    "name": "\u09a8\u09be\u099f\u09cb\u09b0",
    "latitude": 24.416545600304303,
    "longitude": 88.98257
  },
  {
    "name": "\u09aa\u09be\u099f\u0995\u09c7\u09b2\u0998\u09be\u099f\u09be",
    "latitude": 22.767943400392134,
    "longitude": 89.16465029999999
  },
  {
    "name": "\u09aa\u09be\u09b0\u09c1\u09b2\u09bf\u09df\u09be",
    "latitude": 22.59833350039714,
    "longitude": 89.00280649999999
  },
  {
    "name": "\u09ab\u09c1\u09b2\u09ac\u09be\u09dc\u09c0\u0997\u09c7\u099f",
    "latitude": 22.898158100387764,
    "longitude": 89.50976709999999
  },
  {
    "name": "\u09ac\u09dc \u09a6\u09bf\u0998\u09bf\u09b0 \u09aa\u09be\u09dc",
    "latitude": 22.431945100401254,
    "longitude": 91.82001829999999
  },
  {
    "name": "\u09ac\u09b8\u09c1\u09a8\u09cd\u09a6\u09bf\u09df\u09be",
    "latitude": 23.11697080037938,
    "longitude": 89.3530954
  },
  {
    "name": "\u09ac\u09bf\u09b6\u09cd\u09ac\u09a8\u09be\u09a5 - Biswanath",
    "latitude": 24.85445840027019,
    "longitude": 91.74419559999998
  },
  {
    "name": "\u09ac\u09cb\u09af\u09bc\u09be\u09b2\u0996\u09be\u09b2\u09c0",
    "latitude": 22.371742100402557,
    "longitude": 91.90950440000002
  },
  {
    "name": "\u09ae\u09a6\u09a8\u09b9\u09be\u099f",
    "latitude": 22.47167950040034,
    "longitude": 91.8148345
  },
  {
    "name": "\u09ae\u09c1\u09a8\u09cd\u09b8\u09c0\u0997\u099e\u09cd\u099c",
    "latitude": 22.26917090040454,
    "longitude": 89.1949348
  },
  {
    "name": "\u09b0\u09be\u09ae\u09c1 Ramu",
    "latitude": 21.451481400409673,
    "longitude": 92.10155940000001
  },
  {
    "name": "\u09b2\u09cb\u09b9\u09be\u0997\u09be\u09a1\u09bc\u09be",
    "latitude": 22.044259800407847,
    "longitude": 92.10791979999999
  },
  {
    "name": "\u09b8\u09be\u09a8\u09cd\u09a4\u09be\u09b9\u09be\u09b0",
    "latitude": 24.811281000273727,
    "longitude": 88.98502549999999
  }
]